,City,Country,Date,Latitude,Longitude,Cloudiness (%),Humidity (%),Max Temp (F),Wind Speed (mph)
0,kazalinsk,,,,,,,,
1,yepocapa,GT,2021-01-07 15:30:26,14.5042,-90.9569,75,38,79.06999999999996,6.17
2,mwene-ditu,CD,2021-01-07 15:30:27,-7,23.45,100,100,65.01199999999996,2.16
3,hobart,AU,2021-01-07 15:19:54,-42.8794,147.3294,75,88,58.26199999999996,3.6
4,port hardy,CA,2021-01-07 15:15:43,50.6996,-127.4199,75,81,46.66999999999996,10.29
5,aklavik,CA,2021-01-07 15:25:03,68.2191,-135.0107,20,77,-12.72999999999999,3.6
6,kapaa,US,2021-01-07 15:16:31,22.0752,-159.319,20,78,77.26999999999995,3.09
7,wanning,CN,2021-01-07 15:30:27,18.8003,110.3967,100,89,60.70999999999998,7.81
8,busselton,AU,2021-01-07 15:20:27,-33.65,115.3333,97,42,74.26400000000004,1.34
9,atuona,PF,2021-01-07 15:20:27,-9.8,-139.0333,33,74,77.43200000000002,6.5
10,grand river south east,,,,,,,,
11,lavrentiya,RU,2021-01-07 15:20:52,65.5833,-171,7,84,-11.920000000000009,2.37
12,jamestown,US,2021-01-07 15:20:29,42.097,-79.2353,90,80,30.272000000000038,3.09
13,bathsheba,BB,2021-01-07 15:20:52,13.2167,-59.5167,40,69,82.66999999999996,8.75
14,hilo,US,2021-01-07 15:30:28,19.7297,-155.09,20,64,75.46999999999997,2.57
15,saint-philippe,RE,2021-01-07 15:20:40,-21.3585,55.7679,75,78,77.26999999999995,7.2
16,cape town,ZA,2021-01-07 15:28:49,-33.9258,18.4232,20,73,70.26799999999999,8.75
17,rikitea,PF,2021-01-07 15:20:32,-23.1203,-134.9692,100,71,78.08000000000004,3.21
18,monrovia,LR,2021-01-07 15:24:58,6.3005,-10.7969,75,94,79.06999999999996,3.57
19,ushuaia,AR,2021-01-07 15:26:38,-54.8,-68.3,75,39,61.069999999999965,2.06
20,makakilo city,US,2021-01-07 15:25:12,21.3469,-158.0858,20,54,80.86999999999996,3.09
21,port alfred,ZA,2021-01-07 15:20:31,-33.5906,26.891,0,90,67.26199999999996,3.13
22,albany,US,2021-01-07 15:18:28,42.6001,-73.9662,8,70,34.26799999999999,5.36
23,codrington,AU,2021-01-07 15:21:26,-38.2667,141.9667,0,91,55.07599999999999,3.31
24,vung tau,VN,2021-01-07 15:30:28,10.346,107.0843,8,79,76.13599999999997,5.08
25,vila velha,BR,2021-01-07 15:17:43,-20.3297,-40.2925,0,69,87.27799999999996,8.23
26,arraial do cabo,BR,2021-01-07 15:20:31,-22.9661,-42.0278,0,69,88.06999999999996,4.12
27,seoul,KR,2021-01-07 15:27:13,37.5683,126.9778,0,50,1.669999999999959,2.57
28,georgetown,MY,2021-01-07 15:18:45,5.4112,100.3354,20,88,80.27599999999998,2.76
29,puerto ayora,EC,2021-01-07 15:20:37,-0.7393,-90.3518,40,58,84.46999999999997,7.72
30,bluff,NZ,2021-01-07 15:20:34,-46.6,168.3333,53,75,53.27599999999999,2.68
31,vila franca do campo,PT,2021-01-07 15:20:42,37.7167,-25.4333,40,71,53.86999999999996,7.2
32,qaanaaq,GL,2021-01-07 15:20:39,77.484,-69.3632,0,69,-17.679999999999993,3.62
33,nalut,LY,2021-01-07 15:30:30,30.3333,10.85,100,28,64.43599999999998,4.35
34,itacoatiara,BR,2021-01-07 15:29:09,-3.1431,-58.4442,15,56,89.78000000000004,0.89
35,barrow,US,2021-01-07 15:30:30,71.2906,-156.7887,75,71,-7.329999999999991,3.09
36,hermanus,ZA,2021-01-07 15:30:30,-34.4187,19.2345,64,73,70.26799999999999,3.28
37,baijiantan,CN,2021-01-07 15:30:30,45.6333,85.1833,100,88,-0.7780000000000129,0.41
38,antakya,TR,2021-01-07 15:30:30,36.2066,36.1572,97,81,44.86999999999996,2.06
39,baykit,RU,2021-01-07 15:30:30,61.67,96.37,8,80,-13.936000000000021,2.21
40,isangel,VU,2021-01-07 15:20:55,-19.55,169.2667,75,94,79.06999999999996,5.41
41,provideniya,RU,2021-01-07 15:30:30,64.3833,-173.3,10,82,-7.762000000000008,1.79
42,kirakira,SB,2021-01-07 15:20:46,-10.4544,161.9205,100,71,83.066,0.95
43,tsihombe,,,,,,,,
44,lebu,CL,2021-01-07 15:20:47,-37.6167,-73.65,0,65,60.242,9.45
45,avera,US,2021-01-07 15:20:58,33.194,-82.5271,90,50,52.069999999999965,4.63
46,yellowknife,CA,2021-01-07 15:29:22,62.456,-114.3525,75,84,0.2660000000000089,1.65
47,vaini,TO,2021-01-07 15:20:32,-21.2,-175.2,90,94,77.26999999999995,6.17
48,artyk,,,,,,,,
49,chokurdakh,RU,2021-01-07 15:30:31,70.6333,147.9167,97,90,-12.333999999999996,3.47
50,airai,TL,2021-01-07 15:20:45,-8.9266,125.4092,99,100,61.79000000000002,0.74
51,fort nelson,CA,2021-01-07 15:25:23,58.8053,-122.7002,75,85,10.669999999999959,1.09
52,yuncheng,CN,2021-01-07 15:30:32,35.0231,110.9928,0,57,14.485999999999965,2.33
53,olinda,BR,2021-01-07 15:20:35,-8.0089,-34.8553,40,65,80.86999999999996,4.63
54,mataura,NZ,2021-01-07 15:20:33,-46.1927,168.8643,19,75,53.27599999999999,2.68
55,sosva,RU,2021-01-07 15:30:32,59.1766,61.8558,100,92,2.2460000000000484,3.24
56,punta arenas,CL,2021-01-07 15:30:32,-53.15,-70.9167,40,41,61.069999999999965,13.89
57,brokopondo,SR,2021-01-07 15:30:32,4.75,-55.1667,100,89,77.80999999999997,4.12
58,patiya,BD,2021-01-07 15:30:32,22.2931,91.9762,54,70,64.11199999999997,2.09
59,guerrero negro,MX,2021-01-07 15:20:37,27.9769,-114.0611,0,25,73.75999999999999,3.14
60,diamantina,BR,2021-01-07 15:30:32,-18.2494,-43.6003,100,91,67.78399999999999,1.98
61,mengcheng,CN,2021-01-07 15:30:32,33.2579,116.5655,60,62,18.248000000000026,2.87
62,avarua,CK,2021-01-07 15:21:02,-21.2078,-159.775,40,69,82.66999999999996,3.09
63,tera,NE,2021-01-07 15:30:33,14.0078,0.7531,0,15,79.91600000000001,4.48
64,geraldton,AU,2021-01-07 15:20:34,-28.7667,114.6,4,35,71.86999999999996,4.12
65,sinjah,,,,,,,,
66,kruisfontein,ZA,2021-01-07 15:17:23,-34.0033,24.7314,9,83,73.27400000000002,0.89
67,eydhafushi,MV,2021-01-07 15:30:33,5.1033,73.0708,80,75,81.37400000000002,1.89
68,rio gallegos,AR,2021-01-07 15:24:33,-51.6226,-69.2181,75,30,66.46999999999997,12.35
69,taolanaro,,,,,,,,
70,ravar,IR,2021-01-07 15:30:33,31.2656,56.8055,0,70,33.78200000000002,0.79
71,isiro,CD,2021-01-07 15:30:33,2.7739,27.616,64,52,71.16799999999998,0.61
72,cairns,AU,2021-01-07 15:18:30,-16.9167,145.7667,90,89,79.06999999999996,0.51
73,lodja,CD,2021-01-07 15:30:34,-3.4833,23.4333,100,98,69.87200000000004,1.07
74,cidreira,BR,2021-01-07 15:30:34,-30.1811,-50.2056,100,83,78.20600000000003,3.93
75,talaya,RU,2021-01-07 15:30:34,61.3833,152.75,25,82,-25.294000000000025,0.22
76,oktyabrskoye,RU,2021-01-07 15:21:00,43.0645,44.7417,8,100,25.069999999999958,1
77,zhigansk,RU,2021-01-07 15:30:34,66.7697,123.3711,100,83,-33.05199999999998,5.89
78,tahta,EG,2021-01-07 15:30:35,26.7693,31.5021,0,45,62.86999999999996,1.03
79,dondo,MZ,2021-01-07 15:30:35,-19.6094,34.7431,40,79,86.26999999999995,3.09
80,sulangan,PH,2021-01-07 15:30:35,11.1373,123.7228,99,82,79.62799999999996,3.12
81,berlevag,NO,2021-01-07 15:30:35,70.8578,29.0864,0,63,23.26999999999996,9.26
82,ancud,CL,2021-01-07 15:20:45,-41.8697,-73.8203,75,48,62.86999999999996,2.06
83,santo domingo,DO,2021-01-07 15:29:20,18.5001,-69.9886,75,74,84.27200000000005,3.08
84,ovsyanka,RU,2021-01-07 15:24:28,55.9575,92.5519,0,76,-21.72999999999999,0.9
85,pangnirtung,CA,2021-01-07 15:21:21,66.1451,-65.7125,20,69,-19.929999999999993,1.03
86,illoqqortoormiut,,,,,,,,
87,east london,ZA,2021-01-07 15:20:47,-33.0153,27.9116,0,77,71.79800000000003,8.91
88,kodiak,US,2021-01-07 15:30:35,57.79,-152.4072,90,93,39.469999999999956,5.66
89,new norfolk,AU,2021-01-07 15:20:36,-42.7826,147.0587,11,91,56.26400000000004,0.9
90,hasaki,JP,2021-01-07 15:23:32,35.7333,140.8333,20,54,28.66999999999996,1.54
91,valley city,US,2021-01-07 15:25:48,46.9233,-98.0032,90,100,25.069999999999958,3.6
92,clyde river,CA,2021-01-07 15:20:48,70.4692,-68.5914,40,63,-16.32999999999999,1.03
93,norman wells,CA,2021-01-07 15:20:55,65.282,-126.8329,20,77,-9.129999999999988,1.54
94,monastyrshchina,RU,2021-01-07 15:30:36,54.3496,31.838,99,98,31.49600000000005,5.51
95,puqi,CN,2021-01-07 15:30:36,29.7167,113.8833,56,68,27.608000000000004,2.32
96,el negrito,HN,2021-01-07 15:30:36,15.3167,-87.7,40,58,86.26999999999995,3.09
97,ostrovnoy,RU,2021-01-07 15:20:38,68.0531,39.5131,4,94,12.001999999999974,4.91
98,kinkala,CG,2021-01-07 15:30:36,-4.3614,14.7644,40,88,75.46999999999997,1.03
99,itarema,BR,2021-01-07 15:24:59,-2.9248,-39.9167,3,71,83.48000000000005,7.98
100,namatanai,PG,2021-01-07 15:30:36,-3.6667,152.4333,100,79,81.19399999999997,3.57
101,maceio,BR,2021-01-07 15:24:41,-9.6658,-35.7353,40,69,82.66999999999996,4.12
102,satana,IN,2021-01-07 15:30:37,20.5833,74.2,82,79,69.89000000000001,0.9
103,taksimo,RU,2021-01-07 15:30:37,56.3444,114.8794,100,81,-11.055999999999976,1.67
104,vaitupu,,,,,,,,
105,barentsburg,,,,,,,,
106,shingu,JP,2021-01-07 15:21:00,33.7333,135.9833,34,89,30.91999999999996,6.79
107,tiksi,RU,2021-01-07 15:30:37,71.6872,128.8694,100,88,-15.25,8.55
108,antequera,ES,2021-01-07 15:30:37,37.0194,-4.5612,75,100,52.069999999999965,1.54
109,iqaluit,CA,2021-01-07 15:21:03,63.7506,-68.5145,20,69,-19.73200000000002,1.54
110,yangambi,CD,2021-01-07 15:30:37,0.8102,24.4336,34,77,75.36199999999997,1.24
111,mar del plata,AR,2021-01-07 15:20:39,-38.0023,-57.5575,75,73,71.86999999999996,4.63
112,ahipara,NZ,2021-01-07 15:21:25,-35.1667,173.1667,100,95,65.53399999999999,2.38
113,general pico,AR,2021-01-07 15:30:38,-35.6566,-63.7568,0,13,94.892,9.03
114,saint george,US,2021-01-07 15:19:27,37.1041,-113.5841,1,31,54.266000000000005,0.97
115,ye,,,,,,,,
116,sandwick,GB,2021-01-07 15:30:38,60,-1.25,40,75,35.86999999999996,7.2
117,shymkent,KZ,2021-01-07 15:30:38,42.3,69.6,90,92,16.069999999999958,1
118,la ronge,CA,2021-01-07 15:24:45,55.1001,-105.2842,0,60,34.06999999999996,2.57
119,tumannyy,,,,,,,,
120,faya,SA,2021-01-07 15:30:39,18.3851,42.4509,20,88,57.469999999999956,1.74
121,walvis bay,NA,2021-01-07 15:30:39,-22.9575,14.5053,27,88,68.26999999999995,3.09
122,nizhneangarsk,RU,2021-01-07 15:30:39,55.7833,109.55,100,90,-6.7900000000000205,0.63
123,marcona,,,,,,,,
124,saldanha,ZA,2021-01-07 15:20:42,-33.0117,17.9442,0,77,64.66999999999996,4.63
125,bensonville,LR,2021-01-07 15:30:39,6.4461,-10.6125,75,94,79.06999999999996,1.8
126,caravelas,BR,2021-01-07 15:20:50,-17.7125,-39.2481,1,70,81.06799999999998,4.58
127,hithadhoo,MV,2021-01-07 15:20:42,-0.6,73.0833,100,80,82.63399999999999,8.72
128,upernavik,GL,2021-01-07 15:30:40,72.7868,-56.1549,100,91,-1.4620000000000104,3.06
129,pevek,RU,2021-01-07 15:21:05,69.7008,170.3133,100,91,-8.644000000000027,2.21
130,suao,,,,,,,,
131,castro,BR,2021-01-07 15:30:40,-24.7911,-50.0119,99,92,69.20600000000003,2.26
132,cherskiy,RU,2021-01-07 15:20:46,68.75,161.3,100,89,-14.187999999999995,1.18
133,carutapera,BR,2021-01-07 15:21:07,-1.195,-46.02,4,68,84.91999999999996,4.51
134,lyubashivka,UA,2021-01-07 15:30:41,47.8372,30.2598,28,81,38.11999999999996,6.73
135,pemangkat,ID,2021-01-07 15:21:06,1.1667,108.9667,100,92,76.67599999999999,3.42
136,tubruq,,,,,,,,
137,attawapiskat,,,,,,,,
138,nizhneyansk,,,,,,,,
139,carbondale,US,2021-01-07 15:30:41,37.7273,-89.2168,90,70,39.272000000000034,4.63
140,vitre,FR,2021-01-07 15:30:41,48.1178,-1.2058,75,100,34.06999999999996,1.54
141,esperance,AU,2021-01-07 15:30:42,-33.8667,121.9,0,88,59.26999999999996,6.69
142,elatia,GR,2021-01-07 15:30:42,39.8112,22.5382,75,100,46.66999999999996,1.72
143,carnarvon,AU,2021-01-07 15:30:42,-24.8667,113.6333,75,69,82.66999999999996,2.57
144,sibolga,ID,2021-01-07 15:30:42,1.7427,98.7792,100,82,77.28800000000004,1.56
145,te anau,NZ,2021-01-07 15:21:04,-45.4167,167.7167,67,88,49.766000000000005,1.81
146,golubitskaya,RU,2021-01-07 15:30:42,45.3222,37.2822,100,71,53.86999999999996,6
147,cicuco,CO,2021-01-07 15:30:42,9.2631,-74.6569,92,55,88.19600000000005,1.53
148,gat,IL,2021-01-07 15:30:42,31.61,34.7642,99,54,64.27400000000002,3.58
149,mahebourg,MU,2021-01-07 15:30:42,-20.4081,57.7,75,73,77.26999999999995,3.09
150,alamosa,US,2021-01-07 15:30:43,37.4695,-105.87,1,35,35.86999999999996,1.54
151,severo-kurilsk,RU,2021-01-07 15:20:43,50.6789,156.125,17,83,18.788000000000046,3.39
152,malakal,SS,2021-01-07 15:30:43,9.5334,31.6605,0,28,80.33000000000004,3.41
153,vardo,NO,2021-01-07 15:30:43,70.3705,31.1107,20,93,17.86999999999996,10.29
154,ponta do sol,PT,2021-01-07 15:20:59,32.6667,-17.1,75,88,55.66999999999996,10.29
155,esna,EG,2021-01-07 15:30:43,25.2934,32.554,0,42,68.26999999999995,2.06
156,magadan,RU,2021-01-07 15:26:28,59.5667,150.8,49,80,-5.601999999999975,1.95
157,lorengau,PG,2021-01-07 15:30:43,-2.0226,147.2712,80,75,82.70600000000003,2.26
158,saskylakh,RU,2021-01-07 15:30:44,71.9167,114.0833,100,90,-7.491999999999997,4.04
159,torbay,CA,2021-01-07 15:30:44,47.6666,-52.7314,90,100,43.26799999999999,9.77
160,butaritari,KI,2021-01-07 15:30:44,3.0707,172.7902,8,83,81.82400000000001,8.64
161,souillac,MU,2021-01-07 15:30:44,-20.5167,57.5167,75,73,77.26999999999995,3.09
162,tuktoyaktuk,CA,2021-01-07 15:30:44,69.4541,-133.0374,20,84,-12.72999999999999,4.63
163,gull lake,CA,2021-01-07 15:30:44,50.1001,-108.4847,1,75,34.06999999999996,1.54
164,cepu,ID,2021-01-07 15:30:44,-7.1475,111.5906,100,91,75.03800000000004,1.12
165,ornskoldsvik,SE,2021-01-07 15:20:46,63.2909,18.7153,90,100,21.469999999999956,2.06
166,belushya guba,,,,,,,,
167,posse,BR,2021-01-07 15:26:35,-14.0931,-46.3694,95,65,81.608,0.14
168,hamilton,US,2021-01-07 15:27:05,39.1834,-84.5333,90,56,39.469999999999956,7.72
169,lagoa,PT,2021-01-07 15:21:07,39.05,-27.9833,27,72,56.62400000000001,9.71
170,karkaralinsk,,,,,,,,
171,salalah,OM,2021-01-07 15:30:45,17.0151,54.0924,0,28,71.86999999999996,3.6
172,khatanga,RU,2021-01-07 15:20:46,71.9667,102.5,100,93,0.013999999999981583,7.28
173,amapa,BR,2021-01-07 15:30:45,1,-52,77,83,79.01600000000002,1.26
174,salinopolis,BR,2021-01-07 15:30:46,-0.6136,-47.3561,8,75,83.04800000000003,5.59
175,guarapari,BR,2021-01-07 15:21:14,-20.6667,-40.4975,0,69,87.27799999999996,8.23
176,verkhnevilyuysk,RU,2021-01-07 15:30:46,63.4453,120.3167,99,94,3.703999999999951,2.25
177,general roca,AR,2021-01-07 15:30:46,-39.0333,-67.5833,0,15,86.26999999999995,5.66
178,tasiilaq,GL,2021-01-07 15:30:47,65.6145,-37.6368,75,74,25.069999999999958,4.12
179,hueyapan,MX,2021-01-07 15:30:47,18.8667,-98.6667,75,42,77.26999999999995,4.63
180,channel-port aux basques,CA,2021-01-07 15:30:47,47.5702,-59.1367,100,92,42.475999999999985,6.39
181,telenesti,MD,2021-01-07 15:30:47,47.4997,28.3656,0,75,37.66999999999996,1.54
182,asfi,MA,2021-01-07 15:30:47,32.2994,-9.2372,100,80,65.10199999999998,12.42
183,kirkwood,US,2021-01-07 15:29:12,38.5834,-90.4068,90,70,39.272000000000034,6.17
184,leshukonskoye,RU,2021-01-07 15:30:47,64.8989,45.7622,3,91,-6.141999999999996,1.83
185,oranjemund,NA,2021-01-07 15:30:47,-28.55,16.4333,1,87,62.54600000000005,5.18
186,palmer,US,2021-01-07 15:24:38,42.1584,-72.3287,20,41,40.26199999999996,3.6
187,inhambane,MZ,2021-01-07 15:21:15,-23.865,35.3833,40,78,80.86999999999996,3.09
188,teya,RU,2021-01-07 15:20:53,60.3778,92.6267,0,79,-14.15199999999998,0.73
189,praya,CV,2021-01-07 15:21:01,14.9215,-23.5087,0,69,75.46999999999997,6.69
190,labuhan,ID,2021-01-07 15:30:48,-6.8844,112.2051,100,84,77.97200000000004,3.13
191,kostomuksha,RU,2021-01-07 15:30:48,64.571,30.5767,99,95,3.3080000000000034,2.01
192,haapiti,PF,2021-01-07 15:30:48,-17.5667,-149.8667,20,66,86.26999999999995,3.6
193,namibe,AO,2021-01-07 15:30:48,-15.1961,12.1522,68,75,72.75199999999998,4.43
194,bredasdorp,ZA,2021-01-07 15:30:48,-34.5322,20.0403,41,56,70.06999999999996,3.6
195,egvekinot,RU,2021-01-07 15:30:48,66.3167,-179.1667,88,91,-16.833999999999996,0.71
196,praia da vitoria,PT,2021-01-07 15:30:48,38.7333,-27.0667,75,82,53.86999999999996,8.05
197,tautira,PF,2021-01-07 15:30:49,-17.7333,-149.15,20,66,86.26999999999995,3.6
198,alofi,NU,2021-01-07 15:30:49,-19.0595,-169.9187,75,83,82.66999999999996,3.09
199,mount gambier,AU,2021-01-07 15:20:58,-37.8333,140.7667,0,94,53.86999999999996,3.09
200,japura,ID,2021-01-07 15:21:20,-0.3167,102.35,100,89,74.71400000000003,0.62
201,nanortalik,GL,2021-01-07 15:21:11,60.1432,-45.2371,100,93,38.408,4.95
202,kokologo,BF,2021-01-07 15:30:49,12.1897,-1.8856,28,16,79.484,3.54
203,marovoay,MG,2021-01-07 15:30:49,-16.1,46.6333,20,83,80.86999999999996,1.54
204,quatre cocos,MU,2021-01-07 15:30:50,-20.2078,57.7625,75,73,77.26999999999995,3.09
205,panama city,PA,2021-01-07 15:30:50,8.9936,-79.5197,40,62,88.06999999999996,5.66
206,biak,ID,2021-01-07 15:30:50,-0.9131,122.8766,100,81,77.18000000000004,0.65
207,port elizabeth,ZA,2021-01-07 15:30:50,-33.918,25.5701,75,88,70.06999999999996,7.2
208,port-gentil,GA,2021-01-07 15:30:50,-0.7193,8.7815,90,89,80.86999999999996,2.57
209,sigiriya,LK,2021-01-07 15:30:50,7.9518,80.7426,92,97,72.82400000000001,1.12
210,bilibino,RU,2021-01-07 15:30:50,68.0546,166.4372,100,86,-14.062000000000005,0.86
211,khimarros,,,,,,,,
212,buba,GW,2021-01-07 15:30:51,11.5833,-15,0,84,73.85,2.72
213,zarautz,ES,2021-01-07 15:30:51,43.2844,-2.1699,100,58,39.272000000000034,0.45
214,ribeira grande,PT,2021-01-07 15:30:51,38.5167,-28.7,20,71,53.86999999999996,7.72
215,salford,GB,2021-01-07 15:29:58,53.4877,-2.2904,90,93,35.27599999999999,1.03
216,shinuhayr,AM,2021-01-07 15:30:51,39.4367,46.3179,0,72,29.335999999999967,4.62
217,klaksvik,FO,2021-01-07 15:21:26,62.2266,-6.589,20,74,28.66999999999996,10.8
218,bertea,RO,2021-01-07 15:30:52,45.2333,25.8667,99,89,33.27799999999996,0.89
219,dali,CN,2021-01-07 15:30:52,25.7,100.1833,100,80,43.17799999999996,1.7
220,bardiyah,LY,2021-01-07 15:30:52,31.7561,25.0865,100,83,62.11400000000003,3.35
221,sakaiminato,JP,2021-01-07 15:28:15,35.55,133.2333,75,86,25.069999999999958,10.29
222,sorvag,,,,,,,,
223,samusu,,,,,,,,
224,fairbanks,US,2021-01-07 15:21:17,64.8378,-147.7164,75,85,5.269999999999957,0.51
225,amderma,,,,,,,,
226,sao filipe,CV,2021-01-07 15:30:52,14.8961,-24.4956,0,76,75.77599999999998,3.38
227,soria,ES,2021-01-07 15:30:52,41.6667,-2.6667,4,79,23.26999999999996,1.58
228,tabiauea,,,,,,,,
229,celestun,MX,2021-01-07 15:30:53,20.8667,-90.4,100,80,76.15399999999995,4.24
230,kavieng,PG,2021-01-07 15:24:40,-2.5744,150.7967,91,76,82.50800000000001,4.28
231,palanga,LT,2021-01-07 15:30:53,55.9175,21.0686,90,100,34.06999999999996,2.06
232,san antonio,US,2021-01-07 15:26:05,29.4241,-98.4936,1,24,65.26400000000004,4.63
233,dauriya,RU,2021-01-07 15:30:53,49.9333,116.8667,86,87,-11.595999999999997,4.65
234,chuy,UY,2021-01-07 15:20:56,-33.6971,-53.4616,25,40,83.65999999999998,4.05
235,wamba,NG,2021-01-07 15:30:53,8.9333,8.6,97,17,78.51199999999996,2.16
236,iskateley,RU,2021-01-07 15:25:17,67.6803,53.1512,0,92,-0.7959999999999994,2.91
237,maghama,,,,,,,,
238,college,US,2021-01-07 15:21:21,64.8569,-147.8028,75,78,5.269999999999957,1.33
239,duderstadt,DE,2021-01-07 15:30:53,51.5131,10.2595,91,100,33.27799999999996,0.45
240,cahors,FR,2021-01-07 15:30:54,44.4167,1.3333,0,86,33.27799999999996,1.61
241,guanica,PR,2021-01-07 15:30:54,17.9716,-66.908,33,57,82.27400000000002,0.89
242,poso,ID,2021-01-07 15:30:54,-1.3959,120.7524,100,79,79.26799999999999,2.32
243,bethel,US,2021-01-07 15:30:54,41.3712,-73.414,1,51,35.86999999999996,5.66
244,chandia,IN,2021-01-07 15:30:54,23.65,80.7,93,70,63.03200000000002,2.43
245,cabo san lucas,MX,2021-01-07 15:30:54,22.8909,-109.9124,40,50,86.26999999999995,4.63
246,kautokeino,NO,2021-01-07 15:30:54,69.0125,23.0412,87,92,-0.363999999999983,4.98
247,fortuna,US,2021-01-07 15:30:54,40.5982,-124.1573,1,87,52.26799999999999,3.6
248,nyurba,RU,2021-01-07 15:25:20,63.2842,118.3319,100,94,7.232000000000017,3.07
249,huescar,ES,2021-01-07 15:30:55,37.811,-2.5412,100,88,36.266000000000005,2.57
250,nisia floresta,BR,2021-01-07 15:30:55,-6.0911,-35.2086,40,65,84.46999999999997,6.69
251,abalak,RU,2021-01-07 15:30:55,58.1286,68.5944,100,90,-8.698000000000029,3.55
252,eureka,US,2021-01-07 15:25:24,40.8021,-124.1637,100,87,51.27799999999996,0.89
253,belle fourche,US,2021-01-07 15:30:55,44.6714,-103.8522,1,44,38.26400000000003,2.57
254,yar-sale,RU,2021-01-07 15:30:55,66.8333,70.8333,79,88,-12.513999999999982,8.14
255,ketchikan,US,2021-01-07 15:24:49,55.3422,-131.6461,90,81,44.86999999999996,6.17
256,progreso,MX,2021-01-07 15:25:15,21.2833,-89.6667,75,54,86.26999999999995,4.12
257,thompson,CA,2021-01-07 15:27:47,55.7435,-97.8558,40,86,26.86999999999996,3.09
258,omboue,GA,2021-01-07 15:20:56,-1.5746,9.2618,100,87,78.566,5.03
259,missoula,US,2021-01-07 15:30:56,47.0166,-113.8009,90,93,38.26400000000003,1.59
260,vanimo,PG,2021-01-07 15:21:23,-2.6741,141.3028,100,83,79.08800000000005,2.11
261,kloulklubed,PW,2021-01-07 15:30:56,7.0419,134.2556,75,100,75.46999999999997,5.87
262,hami,CN,2021-01-07 15:24:35,42.8,93.45,1,65,7.825999999999986,0.75
263,kavaratti,IN,2021-01-07 15:25:25,10.5669,72.642,22,73,81.71600000000001,0.15
264,marondera,ZW,2021-01-07 15:30:56,-18.1853,31.5519,100,100,62.99600000000005,3.29
265,enshi,CN,2021-01-07 15:30:56,30.3,109.4833,77,93,30.23599999999997,0.89
266,ust-tsilma,RU,2021-01-07 15:30:56,65.441,52.1498,3,91,-3.9820000000000206,1.35
267,do gonbadan,IR,2021-01-07 15:30:56,30.3586,50.7981,0,70,44.86999999999996,0.74
268,vestmannaeyjar,IS,2021-01-07 15:30:56,63.4427,-20.2734,100,87,33.817999999999984,5
269,rio grande,BR,2021-01-07 15:20:53,-32.035,-52.0986,40,31,93.46999999999997,5.66
270,buala,SB,2021-01-07 15:21:11,-8.145,159.5921,83,80,81.12200000000004,2.92
271,kinanah,,,,,,,,
272,mbanza-ngungu,CD,2021-01-07 15:30:57,-5.25,14.8667,100,97,65.56999999999996,1.24
273,lyuban,BY,2021-01-07 15:30:57,52.7985,28.0048,100,99,32.846000000000046,2.52
274,kegayli,,,,,,,,
275,khonuu,,,,,,,,
276,grindavik,IS,2021-01-07 15:21:20,63.8424,-22.4338,75,80,26.86999999999996,9.26
277,saskatoon,CA,2021-01-07 15:30:58,52.1168,-106.6345,40,79,21.469999999999956,1.66
278,mathbaria,BD,2021-01-07 15:30:58,22.2876,89.9593,91,50,68.54000000000002,1.42
279,sefophe,BW,2021-01-07 15:30:58,-22.1833,27.9667,56,80,70.358,5.23
280,voloshka,RU,2021-01-07 15:30:58,61.3314,40.0858,88,92,-2.1280000000000143,1.55
281,dwarka,IN,2021-01-07 15:21:09,22.2394,68.9678,0,49,67.76600000000002,6.81
282,tufesti,RO,2021-01-07 15:30:58,45.05,27.8167,100,64,43.66400000000003,2.9
283,umea,SE,2021-01-07 15:25:17,63.8284,20.2597,90,100,25.069999999999958,1.03
284,portland,US,2021-01-07 15:16:47,45.5234,-122.6762,90,87,48.469999999999956,3.6
285,kedougou,SN,2021-01-07 15:30:58,12.5579,-12.1743,0,15,83.24600000000005,0.72
286,beringovskiy,RU,2021-01-07 15:21:17,63.05,179.3167,17,86,-16.383999999999993,2.64
287,henties bay,NA,2021-01-07 15:21:26,-22.116,14.2845,27,87,68.26999999999995,1.13
288,dingle,PH,2021-01-07 15:21:03,10.9995,122.6711,100,93,75.68599999999998,2.76
289,lata,PT,2021-01-07 15:24:43,40.1629,-8.3327,51,65,45.266000000000005,2.68
290,puerto madero,MX,2021-01-07 15:30:59,14.7208,-92.4215,20,62,88.06999999999996,7.72
291,narsaq,GL,2021-01-07 15:30:59,60.9167,-46.05,100,93,36.82400000000001,2.1
292,abu kamal,SY,2021-01-07 15:24:34,34.4506,40.9171,0,50,52.51999999999996,1.2
293,krasnokholm,RU,2021-01-07 15:30:59,51.5979,54.1567,99,95,14.324000000000012,4.66
294,kaitangata,NZ,2021-01-07 15:30:59,-46.2817,169.8464,64,63,55.274000000000015,2.68
295,sonoita,MX,2021-01-07 15:30:59,31.85,-112.8333,0,16,68.26999999999995,2.16
296,mutsamudu,,,,,,,,
297,mys shmidta,,,,,,,,
298,wa,,,,,,,,
299,davila,PH,2021-01-07 15:30:59,18.4726,120.5763,95,83,74.03000000000004,13.55
300,porto velho,BR,2021-01-07 15:31:00,-8.7619,-63.9039,75,94,73.66999999999996,1.03
301,orlik,RU,2021-01-07 15:24:45,52.5178,99.825,10,80,-16.69000000000002,1
302,dikson,RU,2021-01-07 15:31:00,73.5069,80.5464,83,97,13.369999999999958,5.53
303,karaul,,,,,,,,
304,lolua,,,,,,,,
305,mount isa,AU,2021-01-07 15:31:00,-20.7333,139.5,40,24,80.86999999999996,5.14
306,hamza,UZ,2021-01-07 15:31:00,40.4264,71.4956,90,68,25.069999999999958,4.12
307,hambantota,LK,2021-01-07 15:31:00,6.1241,81.1185,0,100,75.46999999999997,1.03
308,kamenskoye,,,,,,,,
309,vostok,RU,2021-01-07 15:31:00,46.4856,135.8833,100,87,-20.812000000000005,1.31
310,margate,GB,2021-01-07 15:31:01,51.3813,1.3862,100,79,35.27599999999999,0.89
311,qinggang,CN,2021-01-07 15:31:01,46.6833,126.0833,0,85,-22.648000000000025,2.46
312,emmett,US,2021-01-07 15:31:01,43.8735,-116.4993,69,84,42.27799999999996,0.45
313,turukhansk,RU,2021-01-07 15:25:17,65.8167,87.9833,25,87,-18.687999999999995,5.57
314,sao joao da barra,BR,2021-01-07 15:26:26,-21.6403,-41.0511,20,74,80.86999999999996,8.23
315,nara,JP,2021-01-07 15:21:06,34.6851,135.8049,40,63,30.272000000000038,2.06
316,kenai,US,2021-01-07 15:26:38,60.5544,-151.2583,40,64,33.27799999999996,10.29
317,qaqortoq,GL,2021-01-07 15:25:00,60.7167,-46.0333,75,87,37.66999999999996,2.57
318,kysyl-syr,RU,2021-01-07 15:31:01,63.8986,122.7617,100,84,-28.786000000000023,2.8
319,nikolskoye,RU,2021-01-07 15:31:01,59.7035,30.7861,75,93,25.069999999999958,3
320,coahuayana,MX,2021-01-07 15:31:02,18.7333,-103.6833,40,44,82.66999999999996,2.61
321,sentyabrskiy,,,,,,,,
322,spornoye,RU,2021-01-07 15:31:02,50.8448,37.2913,90,100,37.66999999999996,6
323,soyo,AO,2021-01-07 15:31:02,-6.1349,12.3689,100,84,77.91799999999998,2.56
324,aybak,,,,,,,,
325,roald,NO,2021-01-07 15:31:02,62.5833,6.1333,40,60,34.06999999999996,4.12
326,poquoson,US,2021-01-07 15:31:02,37.1224,-76.3458,1,57,46.274000000000015,2.57
327,umm lajj,SA,2021-01-07 15:25:28,25.0213,37.2685,0,56,75.84800000000003,4.26
328,tuatapere,NZ,2021-01-07 15:31:03,-46.1333,167.6833,68,74,54.266000000000005,1.79
329,manicore,BR,2021-01-07 15:31:03,-5.8092,-61.3003,40,94,79.06999999999996,1.03
330,faanui,PF,2021-01-07 15:31:03,-16.4833,-151.75,83,69,81.01400000000004,2.53
331,cayenne,GF,2021-01-07 15:31:03,4.9333,-52.3333,75,100,75.46999999999997,4.63
332,damghan,IR,2021-01-07 15:31:03,36.1683,54.348,0,81,31.567999999999984,1.01
333,rincon de tamayo,MX,2021-01-07 15:31:03,20.4167,-100.75,75,34,74.26400000000004,1.12
334,maniitsoq,GL,2021-01-07 15:31:03,65.4167,-52.9,0,86,8.527999999999963,7.57
335,constitucion,CL,2021-01-07 15:21:13,-35.3333,-72.4167,0,55,67.38800000000005,9.36
336,meulaboh,ID,2021-01-07 15:25:16,4.1363,96.1285,94,90,76.80199999999998,2.31
337,sitka,US,2021-01-07 15:24:00,57.0531,-135.33,90,57,46.66999999999996,6.69
338,ambilobe,MG,2021-01-07 15:29:22,-13.2,49.05,32,88,75.2,1.16
339,saleaula,,,,,,,,
340,guatire,VE,2021-01-07 15:31:04,10.4762,-66.5427,90,100,77.26999999999995,1.54
341,edd,ER,2021-01-07 15:31:04,13.9297,41.6925,0,51,76.40600000000003,8.51
342,nampula,MZ,2021-01-07 15:29:16,-15.1165,39.2666,20,83,79.06999999999996,2.06
343,jabiru,,,,,,,,
344,kamenka,RU,2021-01-07 15:24:46,51.3223,42.7678,100,97,34.26799999999999,4.05
345,ilulissat,GL,2021-01-07 15:31:04,69.2167,-51.1,75,79,14.269999999999957,6.17
346,tura,IN,2021-01-07 15:21:09,25.5198,90.2201,0,69,62.851999999999975,1.61
347,saint-ambroise,CA,2021-01-07 15:31:04,48.5501,-71.3324,15,86,27.26600000000001,5.14
348,san pedro,PH,2021-01-07 15:21:14,14.35,121.0167,75,88,78.27799999999996,0.51
349,parati,BR,2021-01-07 15:31:04,-23.2178,-44.7131,75,83,79.06999999999996,2.06
350,safford,US,2021-01-07 15:31:05,32.834,-109.7076,1,15,57.469999999999956,1.54
351,leningradskiy,RU,2021-01-07 15:21:25,69.3833,178.4167,100,85,-8.662000000000006,4.29
352,luderitz,NA,2021-01-07 15:31:05,-26.6481,15.1594,35,54,71.02400000000002,8.99
353,kuryk,KZ,2021-01-07 15:31:05,43.2,51.65,14,76,35.438000000000045,10.13
354,necochea,AR,2021-01-07 15:31:05,-38.5473,-58.7368,25,77,71.27599999999998,6.13
355,bose,IT,2021-01-07 15:31:05,45.4612,8.0137,43,91,33.27799999999996,1.96
356,cockburn town,TC,2021-01-07 15:31:05,21.4612,-71.1419,15,76,76.64000000000001,5.48
357,launceston,AU,2021-01-07 15:31:05,-41.45,147.1667,90,82,60.27799999999996,4.12
358,kuito,AO,2021-01-07 15:31:05,-12.3833,16.9333,100,99,61.483999999999995,1.82
359,porto novo,BJ,2021-01-07 15:24:35,6.4965,2.6036,20,83,82.66999999999996,5.14
360,kijang,KR,2021-01-07 15:24:59,35.2442,129.2139,0,47,8.869999999999958,0.51
361,ngukurr,,,,,,,,
362,ambon,ID,2021-01-07 15:25:25,-3.6954,128.1814,100,91,83.26400000000004,2.77
363,aden,YE,2021-01-07 15:31:06,12.7794,45.0367,0,68,75.70399999999995,6.26
364,rungata,,,,,,,,
365,sukumo,JP,2021-01-07 15:31:07,32.9333,132.7333,94,96,29.498000000000026,5.27
366,talnakh,RU,2021-01-07 15:31:07,69.4865,88.3972,100,89,-9.38200000000002,5.89
367,chingirlau,KZ,2021-01-07 15:31:07,51.095,54.0814,93,96,16.591999999999995,6.11
368,humboldt,US,2021-01-07 15:31:07,40.6665,-123.9178,1,87,52.26799999999999,3.6
369,sakakah,SA,2021-01-07 15:25:05,29.9697,40.2064,0,34,50.26999999999996,2.57
370,ponta delgada,PT,2021-01-07 15:31:07,37.7333,-25.6667,40,71,53.86999999999996,7.2
371,burnie,AU,2021-01-07 15:31:07,-41.0667,145.9167,18,92,59.26999999999996,0.45
372,ferrol,ES,2021-01-07 15:21:21,43.4832,-8.2369,20,100,45.266000000000005,1.54
373,tiarei,PF,2021-01-07 15:25:12,-17.5333,-149.3333,20,66,86.26999999999995,3.6
374,male,MV,2021-01-07 15:28:11,4.1748,73.5089,75,83,82.66999999999996,2.57
375,victoria,HK,2021-01-07 15:26:08,22.2855,114.1577,100,75,48.272000000000034,2.24
376,woodward,US,2021-01-07 15:31:08,36.4337,-99.3904,90,75,39.469999999999956,4.63
377,yaguajay,CU,2021-01-07 15:31:08,22.3272,-79.2378,13,65,76.94600000000005,3.74
378,ituni,,,,,,,,
379,morganton,US,2021-01-07 15:31:08,35.7454,-81.6848,1,57,44.86999999999996,2.08
380,mogadishu,SO,2021-01-07 15:31:08,2.0371,45.3438,27,79,76.208,10.02
381,petauke,ZM,2021-01-07 15:31:08,-14.2426,31.3253,83,94,68.70199999999997,1.28
382,shache,CN,2021-01-07 15:31:08,38.4167,77.2406,99,94,15.548000000000023,1.86
383,pagudpud,PH,2021-01-07 15:31:09,18.5616,120.7868,97,85,72.46400000000003,10.01
384,mahabad,IR,2021-01-07 15:31:09,36.7631,45.7222,0,86,28.291999999999994,0.61
385,makubetsu,JP,2021-01-07 15:31:09,45.3714,141.8211,100,96,16.574000000000012,10.7
386,bad sachsa,DE,2021-01-07 15:31:09,51.595,10.5555,94,98,33.27799999999996,2
387,mercedes,AR,2021-01-07 15:31:09,-34.6515,-59.4307,0,26,93.27200000000005,2.24
388,vynohradivka,UA,2021-01-07 15:31:09,45.6812,28.5714,75,87,41.26999999999996,5.14
389,domoni,KM,2021-01-07 15:31:09,-12.2569,44.5319,0,76,79.86199999999997,1.3
390,port augusta,AU,2021-01-07 15:31:09,-32.5,137.7667,0,88,62.86999999999996,4.63
391,muleba,TZ,2021-01-07 15:31:09,-1.8397,31.6544,0,88,71.86999999999996,1.75
392,lakatoro,VU,2021-01-07 15:31:10,-16.0999,167.4164,79,71,84.83000000000004,1.05
393,kaeo,NZ,2021-01-07 15:31:10,-35.1,173.7833,100,95,66.27200000000005,0.45
394,sola,VU,2021-01-07 15:31:10,-13.8833,167.55,100,73,83.39000000000001,2.23
395,dudinka,RU,2021-01-07 15:27:08,69.4058,86.1778,100,91,-4.755999999999979,8.51
396,arcachon,FR,2021-01-07 15:31:10,44.5875,-1.0519,0,93,32.26999999999996,1.03
397,havoysund,NO,2021-01-07 15:31:10,70.9963,24.6622,0,74,28.66999999999996,13.89
398,taoudenni,ML,2021-01-07 15:20:01,22.6783,-3.9836,100,20,79.71799999999999,2.53
399,kajaani,FI,2021-01-07 15:30:20,64.2273,27.7285,90,93,19.66999999999996,2.57
400,yazd,IR,2021-01-07 15:31:11,31.8972,54.3675,0,40,30.46999999999996,1.03
401,katsuura,JP,2021-01-07 15:31:11,35.1333,140.3,75,48,39.469999999999956,2.57
402,liverpool,GB,2021-01-07 15:23:55,53.4106,-2.9779,90,93,36.266000000000005,3.09
403,kankon,IN,2021-01-07 15:31:11,15.0167,74.0167,75,100,77.26999999999995,2.06
404,hofn,IS,2021-01-07 15:31:11,64.2539,-15.2082,99,90,24.8,3.93
405,krasnoselkup,RU,2021-01-07 15:31:11,65.7,82.4667,52,88,-12.387999999999998,7.6
406,pathein,MM,2021-01-07 15:31:11,16.7833,94.7333,71,73,73.43599999999998,2.16
407,tchibanga,GA,2021-01-07 15:31:11,-2.85,11.0333,100,99,72.71600000000001,0.88
408,mankono,CI,2021-01-07 15:31:11,8.0586,-6.1897,14,45,83.04800000000003,1.95
409,darab,IR,2021-01-07 15:31:11,28.7519,54.5444,15,55,40.622000000000035,4.48
410,juneau,US,2021-01-07 15:27:01,58.3019,-134.4197,90,87,41.26999999999996,10.8
411,senneterre,CA,2021-01-07 15:31:12,48.3835,-77.2328,90,85,14.269999999999957,2.57
412,villamontes,BO,2021-01-07 15:31:12,-21.25,-63.5,13,49,84.55999999999997,2.13
413,setermoen,NO,2021-01-07 15:25:26,68.861,18.3486,0,79,10.669999999999959,3.25
414,yunyang,CN,2021-01-07 15:31:12,33.4474,112.7142,27,62,21.14600000000005,0.91
415,marawi,PH,2021-01-07 15:31:12,7.9986,124.2928,100,93,74.26400000000004,1.79
416,bambous virieux,MU,2021-01-07 15:31:12,-20.3428,57.7575,75,73,77.26999999999995,3.09
417,kununurra,AU,2021-01-07 15:31:12,-15.7667,128.7333,9,100,77.26999999999995,1.59
418,boa vista,BR,2021-01-07 15:31:12,2.8197,-60.6733,75,51,89.86999999999996,5.14
419,hovd,MN,2021-01-07 15:24:45,48.0056,91.6419,44,79,-12.17199999999999,0.3
420,san patricio,US,2021-01-07 15:31:13,28.017,-97.5169,20,22,68.26999999999995,7.72
421,tonj,SS,2021-01-07 15:31:13,7.2737,28.6822,0,25,77.19800000000004,1.66
422,quime,BO,2021-01-07 15:31:13,-16.9833,-67.2167,94,71,52.91600000000001,3.3
423,korla,CN,2021-01-07 15:21:14,41.7597,86.1469,44,87,12.451999999999973,2.31
424,forio,IT,2021-01-07 15:31:13,40.7342,13.8646,100,88,51.27799999999996,6.26
425,oranjestad,AW,2021-01-07 15:31:13,12.524,-70.027,75,89,80.86999999999996,6.69
426,sunbury,AU,2021-01-07 15:31:13,-37.5833,144.7333,20,94,56.26400000000004,3.6
427,bengkulu,ID,2021-01-07 15:31:13,-3.8004,102.2655,95,85,75.29000000000002,1.99
428,joensuu,FI,2021-01-07 15:31:13,62.6012,29.7632,90,86,17.86999999999996,2.57
429,comodoro rivadavia,AR,2021-01-07 15:25:17,-45.8667,-67.5,20,40,68.26999999999995,6.17
430,dalipuga,PH,2021-01-07 15:31:14,8.3158,124.2547,100,93,74.26400000000004,1.79
431,imbituba,BR,2021-01-07 15:25:10,-28.24,-48.6703,75,83,77.26999999999995,3.6
432,abashiri,JP,2021-01-07 15:31:14,44.0213,144.2697,100,84,26.27599999999999,4.47
433,krasnyye baki,RU,2021-01-07 15:31:14,57.131,45.1599,99,97,15.511999999999954,1.48
434,vega de alatorre,MX,2021-01-07 15:31:14,20.0333,-96.6333,97,60,68.21600000000001,7.62
435,ust-koksa,RU,2021-01-07 15:31:14,50.2696,85.6108,97,64,-3.1000000000000014,0.34
436,greensburg,US,2021-01-07 15:31:14,40.3015,-79.5389,90,64,38.26400000000003,2.06
437,tutoia,BR,2021-01-07 15:31:14,-2.7619,-42.2744,40,74,86.26999999999995,6.17
438,alta,NO,2021-01-07 15:27:39,69.9689,23.2717,0,62,16.069999999999958,7.2
439,baiyin,CN,2021-01-07 15:31:14,36.5583,104.2081,0,59,15.277999999999963,2
440,matara,LK,2021-01-07 15:24:48,5.9485,80.5353,68,90,76.208,2.42
441,charters towers,AU,2021-01-07 15:30:16,-20.1,146.2667,64,90,76.74800000000002,5.7
442,longyearbyen,SJ,2021-01-07 15:31:15,78.2186,15.6401,75,80,25.069999999999958,14.4
443,tarko-sale,RU,2021-01-07 15:21:14,64.9225,77.785,0,80,-12.72999999999999,7.05
444,touros,BR,2021-01-07 15:31:15,-5.1989,-35.4608,20,69,82.66999999999996,7.2
445,yulara,AU,2021-01-07 15:31:15,-25.2406,130.9889,0,24,68.26999999999995,3.6
446,kyabe,TD,2021-01-07 15:31:15,9.4515,18.9449,27,18,75.52400000000002,2
447,zavodskoy,RU,2021-01-07 15:31:15,43.4597,132.2922,57,41,-9.129999999999988,3
448,honiara,SB,2021-01-07 15:31:15,-9.4333,159.95,41,69,84.39800000000002,0.18
449,afua,BR,2021-01-07 15:25:09,-0.1567,-50.3867,3,76,84.07400000000001,1.89
450,pangody,RU,2021-01-07 15:31:16,65.85,74.4859,33,89,-11.90199999999998,6.68
451,agva,,,,,,,,
452,vestmanna,FO,2021-01-07 15:24:59,62.1564,-7.1664,75,64,30.46999999999996,7.2
453,coutances,FR,2021-01-07 15:31:16,49.05,-1.4333,20,70,41.26999999999996,1.03
454,bandar-e torkaman,,,,,,,,
455,hammerfest,NO,2021-01-07 15:21:16,70.6634,23.6821,0,59,28.66999999999996,5.14
456,caraballeda,VE,2021-01-07 15:31:16,10.6112,-66.8522,90,100,77.26999999999995,1.54
457,upata,VE,2021-01-07 15:31:16,8.0086,-62.3989,100,70,85.26199999999996,2.68
458,pisco,PE,2021-01-07 15:26:52,-13.7,-76.2167,0,69,77.26999999999995,10.29
459,sao felix do xingu,BR,2021-01-07 15:25:25,-6.6447,-51.995,4,49,91.292,1.86
460,maykor,RU,2021-01-07 15:31:16,59.0059,55.88,100,95,10.003999999999952,3.14
461,ajdabiya,LY,2021-01-07 15:31:16,30.7554,20.2263,100,58,62.780000000000044,2.53
462,kerema,PG,2021-01-07 15:25:17,-7.9631,145.7785,99,86,77.71999999999997,3.6
463,afsin,TR,2021-01-07 15:31:17,38.2477,36.914,84,78,37.79600000000005,0.41
464,port hawkesbury,CA,2021-01-07 15:31:17,45.6169,-61.3485,90,100,37.274000000000015,8.75
465,mao,ES,2021-01-07 15:31:17,39.8885,4.2658,75,76,46.66999999999996,7.2
466,hue,VN,2021-01-07 15:27:57,16.4667,107.6,75,94,66.46999999999997,3.09
467,chunskiy,RU,2021-01-07 15:31:17,56.0815,99.6342,2,86,-15.844000000000023,1.91
468,tindivanam,IN,2021-01-07 15:31:17,12.25,79.65,54,93,73.63399999999999,2.84
469,okhotsk,RU,2021-01-07 15:31:17,59.3833,143.3,46,78,-21.17199999999999,5.28
470,richards bay,ZA,2021-01-07 15:31:17,-28.783,32.0377,69,79,71.69000000000003,1.76
471,saint-georges,GD,2021-01-07 15:31:17,12.0564,-61.7485,40,70,84.46999999999997,7.72
472,bafra,TR,2021-01-07 15:31:17,41.5678,35.9069,100,87,43.06999999999996,2.57
473,conde,BR,2021-01-07 15:28:11,-7.2597,-34.9075,20,69,82.66999999999996,5.66
474,dhing,IN,2021-01-07 15:31:18,26.4667,92.4667,19,66,61.88000000000004,3.03
475,sambava,MG,2021-01-07 15:31:18,-14.2667,50.1667,4,86,77.05399999999995,2.53
476,belyy yar,RU,2021-01-07 15:31:18,53.6039,91.3903,100,76,-19.929999999999993,1
477,aporawan,,,,,,,,
478,lasa,IT,2021-01-07 15:31:18,46.6166,10.7002,0,78,32.26999999999996,2.57
479,poum,NC,2021-01-07 15:31:18,-20.2333,164.0167,63,80,82.77799999999996,4.53
480,antsohihy,MG,2021-01-07 15:31:18,-14.8796,47.9875,31,90,76.28000000000004,0.98
481,chapais,CA,2021-01-07 15:31:18,49.7834,-74.8492,90,92,14.269999999999957,4.63
482,xining,CN,2021-01-07 15:31:19,36.6167,101.7667,0,74,4.838000000000044,0.86
483,bubaque,GW,2021-01-07 15:31:19,11.2833,-15.8333,0,78,80.11400000000003,7.15
484,carballo,ES,2021-01-07 15:31:19,43.213,-8.691,20,100,38.26400000000003,1.54
485,khandyga,RU,2021-01-07 15:31:19,62.6667,135.6,95,77,-45.346000000000004,1.42
486,beloha,MG,2021-01-07 15:31:20,-25.1667,45.05,54,86,76.08200000000002,2.13
487,yumen,CN,2021-01-07 15:31:20,40.2833,97.2,0,69,2.911999999999953,5.19
488,kungurtug,RU,2021-01-07 15:31:20,50.5994,97.5228,16,81,-20.146,0.32
489,santiago,CL,2021-01-07 15:21:23,-33.4569,-70.6483,20,23,91.27400000000002,4.12
490,karauzyak,,,,,,,,
491,christchurch,NZ,2021-01-07 15:29:19,-43.5333,172.6333,75,94,59.26999999999996,6.17
492,black river,JM,2021-01-07 15:31:20,18.0264,-77.8487,20,74,83.26400000000004,7.72
493,senmonorom,,,,,,,,
494,sioux lookout,CA,2021-01-07 15:28:29,50.1001,-91.917,75,93,26.86999999999996,4.12
495,minot,US,2021-01-07 15:31:20,48.2325,-101.2963,75,65,39.469999999999956,5.14
496,bethanien,NA,2021-01-07 15:31:20,-26.502,17.1583,17,38,80.834,4.1
497,bandarbeyla,SO,2021-01-07 15:31:20,9.4942,50.8122,22,69,73.92200000000004,9.57
498,sorland,NO,2021-01-07 15:24:34,67.667,12.6934,75,93,30.46999999999996,6.69
499,hokitika,NZ,2021-01-07 15:31:21,-42.7167,170.9667,100,81,63.788000000000046,0.29
500,tawkar,,,,,,,,
501,svobodnyy,RU,2021-01-07 15:31:21,51.4,128.1333,100,87,-19.137999999999998,1.3
502,hualmay,PE,2021-01-07 15:31:21,-11.0964,-77.6139,46,67,75.79399999999998,4.75
503,ukiah,US,2021-01-07 15:31:21,39.1502,-123.2078,1,71,53.27599999999999,0.61
504,tulun,RU,2021-01-07 15:27:14,54.5611,100.5792,0,87,-5.475999999999992,2.46
505,aalestrup,,,,,,,,
506,amberley,US,2021-01-07 15:31:21,39.2048,-84.428,90,60,38.26400000000003,5.66
507,chokwe,MZ,2021-01-07 15:31:21,-24.5333,32.9833,79,88,73.70600000000003,2.48
508,peruibe,BR,2021-01-07 15:28:22,-24.32,-46.9983,77,77,83.49800000000002,1.87
509,buraydah,SA,2021-01-07 15:31:22,26.326,43.975,75,100,53.86999999999996,1.03
510,altud,RU,2021-01-07 15:31:22,43.7219,43.8658,95,86,32.26999999999996,1
511,itoman,JP,2021-01-07 15:24:49,26.1247,127.6694,75,76,53.86999999999996,10.8
512,coihaique,CL,2021-01-07 15:31:22,-45.5752,-72.0662,75,47,59.26999999999996,3.09
513,hobyo,SO,2021-01-07 15:31:22,5.3505,48.5268,0,68,75.326,9.09
514,viedma,AR,2021-01-07 15:26:53,-40.8135,-62.9967,19,45,72.26600000000002,3.58
515,maragogi,BR,2021-01-07 15:31:22,-9.0122,-35.2225,25,76,79.60999999999999,5.05
516,aleksandrovsk-sakhalinskiy,RU,2021-01-07 15:31:22,50.8975,142.1561,99,88,-10.894000000000027,2.78
517,maneadero,MX,2021-01-07 15:31:22,31.7167,-116.5667,32,80,61.26799999999999,0.89
518,sangar,RU,2021-01-07 15:31:22,63.9242,127.4739,100,77,-42.39400000000002,3.95
519,palu,ID,2021-01-07 15:31:06,-0.8917,119.8707,100,82,76.13599999999997,0.99
520,nakusp,CA,2021-01-07 15:25:10,50.2499,-117.8023,31,70,41.26999999999996,0.51
521,kailua,US,2021-01-07 15:31:23,21.4022,-157.7394,20,57,80.86999999999996,4.63
522,amarkantak,IN,2021-01-07 15:31:23,22.6667,81.75,54,59,59.66600000000001,1.54
523,porto santo,PT,2021-01-07 15:31:23,33.072,-16.3415,40,82,55.66999999999996,9.77
524,ixtapa,MX,2021-01-07 15:24:42,20.7,-105.2,75,61,79.06999999999996,2.57
525,wattegama,LK,2021-01-07 15:24:33,6.7989,81.4808,0,100,75.46999999999997,1.03
526,lompoc,US,2021-01-07 15:28:37,34.6391,-120.4579,1,47,68.26999999999995,2.57
527,geresk,,,,,,,,
528,mahaicony,,,,,,,,
529,henzada,,,,,,,,
530,dunmore town,BS,2021-01-07 15:24:56,25.5,-76.65,36,58,72.48200000000003,3.92
531,am timan,TD,2021-01-07 15:31:23,11.0297,20.2827,13,19,75.03800000000004,2.67
532,logansport,US,2021-01-07 15:24:47,40.7545,-86.3567,90,69,35.86999999999996,3.6
533,whitehorse,CA,2021-01-07 15:31:22,60.7161,-135.0538,75,80,25.069999999999958,8.23
534,reefton,,,,,,,,
535,inuvik,CA,2021-01-07 15:31:24,68.3499,-133.7218,32,84,-3.7299999999999898,4.48
536,humberto de campos,BR,2021-01-07 15:31:24,-2.5983,-43.4611,38,77,81.40999999999998,3.32
537,tefe,BR,2021-01-07 15:31:24,-3.3542,-64.7114,20,66,89.86999999999996,2.57
538,charlottetown,CA,2021-01-07 15:31:24,46.2352,-63.1267,90,100,32.26999999999996,6.69
539,sataua,,,,,,,,
540,port lincoln,AU,2021-01-07 15:24:41,-34.7333,135.8667,0,89,61.32200000000004,4.34
541,saint-denis,FR,2021-01-07 15:31:24,48.9167,2.3333,90,93,37.274000000000015,1.54
542,la palma,US,2021-01-07 15:31:25,33.8464,-118.0467,75,67,69.27799999999996,2.57
543,kapuskasing,CA,2021-01-07 15:25:21,49.4169,-82.4331,6,53,19.66999999999996,0.47
544,chake chake,TZ,2021-01-07 15:31:25,-5.2459,39.7666,0,80,78.87200000000004,5.35
545,nantucket,US,2021-01-07 15:29:45,41.2835,-70.0995,20,60,39.469999999999956,7.72
546,carmarthen,GB,2021-01-07 15:31:25,51.8555,-4.3054,75,81,39.469999999999956,4.12
547,bull savanna,JM,2021-01-07 15:25:09,17.8868,-77.5902,0,60,78.81799999999998,2.05
548,licata,IT,2021-01-07 15:31:25,37.1071,13.9461,75,67,61.069999999999965,3.09
549,kuche,,,,,,,,
550,kushmurun,KZ,2021-01-07 15:31:25,52.4503,64.6311,80,83,-11.758000000000003,2.21
551,cheremshan,RU,2021-01-07 15:31:25,54.6667,51.5,99,97,17.95999999999998,6.41
552,talas,TR,2021-01-07 15:31:25,38.6908,35.5538,100,75,34.06999999999996,3.6
553,matay,EG,2021-01-07 15:31:26,28.419,30.7792,0,39,61.79000000000002,2.41
554,seguela,CI,2021-01-07 15:31:26,7.9611,-6.6731,0,42,83.56999999999996,1.98
555,jahrom,,,,,,,,
556,sandakan,MY,2021-01-07 15:31:26,5.8402,118.1179,20,94,77.26999999999995,1.03
557,ystad,SE,2021-01-07 15:31:26,55.4297,13.8204,90,93,32.26999999999996,3.09
558,gudari,IN,2021-01-07 15:31:26,19.35,83.7833,1,64,66.74000000000002,0.54
559,punta alta,AR,2021-01-07 15:25:07,-38.8759,-62.0736,0,58,75.12799999999996,6.06
560,skjervoy,NO,2021-01-07 15:31:26,70.0311,20.9714,0,62,16.069999999999958,8.75
561,fukue,JP,2021-01-07 15:31:27,32.6881,128.8419,100,89,35.780000000000044,11.41
562,aksu,CN,2021-01-07 15:31:27,41.1231,80.2644,100,80,12.46999999999996,1.32
563,trinidad,BO,2021-01-07 15:31:27,-14.8333,-64.9,68,73,82.63399999999999,2.46
564,naron,ES,2021-01-07 15:31:27,43.5167,-8.1528,20,100,44.27599999999999,1.54
565,jacmel,HT,2021-01-07 15:31:27,18.2342,-72.5347,40,61,84.46999999999997,3.6
566,andros town,BS,2021-01-07 15:31:27,24.7,-77.7667,40,50,77.26999999999995,4.12
567,pilar,BR,2021-01-07 15:31:27,-9.5972,-35.9567,40,69,82.66999999999996,4.12
568,kuching,MY,2021-01-07 15:31:27,1.55,110.3333,40,94,77.26999999999995,0.98
569,luganville,VU,2021-01-07 15:31:27,-15.5333,167.1667,78,73,84.41600000000001,0.55
570,rameswaram,IN,2021-01-07 15:31:28,9.2833,79.3,53,85,80.31199999999995,5.94
571,nome,US,2021-01-07 15:31:28,64.5011,-165.4064,90,72,5.269999999999957,2.57
572,pringsewu,ID,2021-01-07 15:31:28,-5.3582,104.9744,100,93,75.01999999999995,0.59
573,balkanabat,TM,2021-01-07 15:31:28,39.5108,54.3671,100,58,39.07400000000001,5.06
574,kinablangan,PH,2021-01-07 15:31:28,7.6947,126.5503,100,83,77.46799999999999,2.31
575,maues,BR,2021-01-07 15:31:28,-3.3836,-57.7186,81,64,87.49399999999997,0.32
576,yichang,CN,2021-01-07 15:31:28,30.7144,111.2847,62,74,25.267999999999983,0.33
577,colgong,IN,2021-01-07 15:31:28,25.2667,87.2167,0,64,63.158,2.57
578,ibotirama,BR,2021-01-07 15:31:29,-12.1853,-43.2206,1,39,85.73000000000005,1.47
579,moroto,UG,2021-01-07 15:31:29,2.5345,34.6666,93,44,71.15,3.89
580,zubtsov,RU,2021-01-07 15:31:29,56.1753,34.5894,92,97,19.975999999999985,2.84
581,pacific grove,US,2021-01-07 15:31:29,36.6177,-121.9166,1,58,64.27400000000002,3.6
582,colombo,LK,2021-01-07 15:31:14,6.9319,79.8478,40,94,79.06999999999996,1.54
583,san cristobal,VE,2021-01-07 15:23:14,7.7669,-72.225,75,61,82.66999999999996,2.57
584,ortona,IT,2021-01-07 15:31:29,42.3496,14.4039,90,76,44.86999999999996,1.54
585,osmena,PH,2021-01-07 15:31:29,10.5208,119.9258,100,80,81.46400000000003,8.29
586,khor,RU,2021-01-07 15:31:29,47.8861,134.9464,77,86,-16.942,3.66
587,warah,PK,2021-01-07 15:31:29,27.4481,67.7978,0,43,50.57599999999999,1.77
588,olafsvik,IS,2021-01-07 15:31:29,64.8945,-23.7142,100,95,37.148000000000025,11.08
589,samalaeulu,,,,,,,,
590,chumikan,RU,2021-01-07 15:31:30,54.7183,135.315,85,81,-22.251999999999974,7.01
591,ridgecrest,US,2021-01-07 15:31:07,35.6225,-117.6709,1,24,62.27599999999999,0.51
592,mizdah,LY,2021-01-07 15:22:06,31.4451,12.9801,100,34,60.42200000000004,2.52
593,belmonte,BR,2021-01-07 15:24:33,-15.8631,-38.8828,0,61,84.46999999999997,4.12
594,kupang,ID,2021-01-07 15:31:30,-10.1667,123.5833,93,82,79.23200000000003,1.26
595,omsukchan,RU,2021-01-07 15:31:30,62.5333,155.8,1,82,-16.024000000000015,0.65
596,doctor pedro p. pena,,,,,,,,
597,maravilha,BR,2021-01-07 15:31:30,-26.7608,-53.1725,75,57,81.26600000000002,2.57
598,winnemucca,US,2021-01-07 15:31:31,40.973,-117.7357,1,45,43.06999999999996,1.8
599,maningrida,AU,2021-01-07 15:24:36,-12.0667,134.2667,99,80,81.69800000000004,1.07
600,nouadhibou,MR,2021-01-07 15:31:31,20.931,-17.0347,0,94,70.06999999999996,2.57
601,oistins,BB,2021-01-07 15:30:33,13.0667,-59.5333,40,69,82.66999999999996,8.75
602,gualeguaychu,AR,2021-01-07 15:31:31,-33.0094,-58.5172,0,23,92.26400000000004,2.68
603,flinders,AU,2021-01-07 15:31:31,-34.5833,150.8552,38,88,66.27200000000005,0.45
604,kondratovo,RU,2021-01-07 15:31:31,57.9804,56.1066,90,73,17.86999999999996,3
605,surgut,RU,2021-01-07 15:31:31,61.25,73.4167,20,83,-16.32999999999999,2
606,husavik,IS,2021-01-07 15:31:31,66.0449,-17.3389,0,54,23.26999999999996,7.72
607,kayanza,BI,2021-01-07 15:31:32,-3.0667,29.6667,13,91,59.846000000000046,0.88
608,san quintin,MX,2021-01-07 15:31:32,30.4833,-115.95,0,49,67.58599999999997,3.19
609,waipawa,NZ,2021-01-07 15:31:32,-41.4122,175.5153,90,88,62.86999999999996,4.12
610,winchester,GB,2021-01-07 15:31:32,51.0651,-1.3187,90,100,31.261999999999954,1.54
611,kisangani,CD,2021-01-07 15:31:32,0.5167,25.2,9,75,75.83000000000004,1.44
612,ponta pora,BR,2021-01-07 15:31:32,-22.5361,-55.7256,20,78,75.46999999999997,3.09
613,singaraja,ID,2021-01-07 15:31:32,-8.112,115.0882,100,74,80.47400000000002,2.72
614,kundiawa,PG,2021-01-07 15:31:32,-6.0167,144.9667,98,76,62.81600000000001,0.79
615,komsomolskiy,UZ,2021-01-07 15:31:32,40.4272,71.7189,90,68,25.069999999999958,4.12
616,linfen,CN,2021-01-07 15:31:33,36.0889,111.5189,0,53,16.10600000000003,2.22
617,wagar,SD,2021-01-07 15:31:33,16.1525,36.2032,0,84,70.05199999999998,7.69
